valid_frame_index,raw_frame_index,timestamp_s,time_from_start_s,normalized_time,body_height_px,shoulder_width_px,shoulder_width_m,hip_width_px,hip_width_m,knee_width_px,knee_width_m,ankle_width_px,ankle_width_m,left_video_pitch_deg,left_video_roll_deg,left_video_yaw_deg,right_video_pitch_deg,right_video_roll_deg,right_video_yaw_deg,left_sensor_pitch_deg,left_sensor_roll_deg,left_sensor_yaw_deg,right_sensor_pitch_deg,right_sensor_roll_deg,right_sensor_yaw_deg,kp_00_x_px,kp_00_y_px,kp_00_x_m,kp_00_y_m,kp_00_conf,kp_01_x_px,kp_01_y_px,kp_01_x_m,kp_01_y_m,kp_01_conf,kp_02_x_px,kp_02_y_px,kp_02_x_m,kp_02_y_m,kp_02_conf,kp_03_x_px,kp_03_y_px,kp_03_x_m,kp_03_y_m,kp_03_conf,kp_04_x_px,kp_04_y_px,kp_04_x_m,kp_04_y_m,kp_04_conf,kp_05_x_px,kp_05_y_px,kp_05_x_m,kp_05_y_m,kp_05_conf,kp_06_x_px,kp_06_y_px,kp_06_x_m,kp_06_y_m,kp_06_conf,kp_07_x_px,kp_07_y_px,kp_07_x_m,kp_07_y_m,kp_07_conf,kp_08_x_px,kp_08_y_px,kp_08_x_m,kp_08_y_m,kp_08_conf,kp_09_x_px,kp_09_y_px,kp_09_x_m,kp_09_y_m,kp_09_conf,kp_10_x_px,kp_10_y_px,kp_10_x_m,kp_10_y_m,kp_10_conf,kp_11_x_px,kp_11_y_px,kp_11_x_m,kp_11_y_m,kp_11_conf,kp_12_x_px,kp_12_y_px,kp_12_x_m,kp_12_y_m,kp_12_conf,kp_13_x_px,kp_13_y_px,kp_13_x_m,kp_13_y_m,kp_13_conf,kp_14_x_px,kp_14_y_px,kp_14_x_m,kp_14_y_m,kp_14_conf,kp_15_x_px,kp_15_y_px,kp_15_x_m,kp_15_y_m,kp_15_conf,kp_16_x_px,kp_16_y_px,kp_16_x_m,kp_16_y_m,kp_16_conf,box_x1,box_y1,box_x2,box_y2
0,45,22637.554771410505,0.0,0.0,923.7489159369236,148.27174861195067,-0.2285003382572594,100.78657386982242,-0.07185649134138938,98.83819818038597,0.4145813217977142,88.49136737023011,0.5363963585973994,3.557623396190992,-2.709596332115134,4.354923633952793,2.02753144637803,-0.04285023746267966,0.5425769519415555,11.479018974225669,56.85274873368026,-128.03992326159,-4.75484630681504,-172.78308959245481,-110.64508952618941,1074.4602872510202,171.42449890066416,2.146495663151095,0.34506322129006206,0.9960228231611822,1088.28344860545,156.44702409908078,2.210819452604887,0.3122913077573689,1.0,1058.906484422949,160.18295056502865,2.113802533792164,0.3182597851700993,1.0,1113.368960366646,172.7129926509181,2.249550072758783,0.34866820598471315,0.8801788589015067,1033.207988310982,174.43015155920452,2.0332900622462873,0.36123729983024605,0.9008386034882706,1155.6282270654585,274.9879645191746,2.3798329162987084,0.5452980529933886,1.0,1004.4460745111808,277.7786163457997,2.0271914496983428,0.5503546072102622,0.9990755773905136,1191.4627139066308,395.84371397666706,2.3569362302726216,0.7762521562344906,0.9988962850410079,976.5519823605326,405.1571697232562,1.9381195572955383,0.7866209472577375,0.9968890415994311,1218.3050238283035,508.60529007875795,2.4922020194689316,1.0348547538899366,0.9999847908552527,948.3811281963991,516.3472492529288,1.906841307861619,1.0438258168739358,0.9943346561023823,1128.8969831688196,518.0319131054297,2.2843273454616466,1.0260332966462844,1.0,1027.4745174423297,520.1995246299981,2.115791295997695,1.0551845478854576,1.0,1126.4541457711332,720.9724566513356,2.2143282661742996,1.4601707312875813,1.0,1023.9484191512112,729.0798539215931,2.1068933470110824,1.491653936357632,0.9962872258917761,1111.3360346337026,929.1581092679152,2.2052007057912966,1.835217300476092,1.0,1026.3136395236725,956.7256139850036,2.080709621316719,1.9541206117829584,0.9950440358972523,922.5775917434552,97.31427841679464,1244.412799665574,1060.9013970653996
1,46,22637.643966642892,0.08919523238638302,0.015873015873015872,949.1598521287838,153.38598341175245,0.15045504505979007,105.82841994807448,-0.030744077595180386,122.24541128020638,-0.10703171478734375,102.76734660580557,0.7112138976351036,8.324829470870565,-0.1895035912416123,3.8025952407810815,5.333927967890634,0.43027094705762936,2.5706561399450742,10.250634874436404,56.3571747772849,-122.98078163256056,-4.440622170977397,-169.25929442823153,-110.38210452904622,1064.349530347517,182.7214326190124,2.058519939597342,0.3564813639986283,0.9953283896099862,1079.1786438196452,167.5805897802072,2.1195529599695893,0.3166503744105631,1.0,1050.3873227346094,169.6465851616975,2.022935221647321,0.32760190097556335,1.0,1105.3526189971662,182.51720658436898,2.1553664087031024,0.35569688090084534,0.8883925733912815,1025.7540115360055,182.26796573194204,1.9482071305036444,0.3656483233489515,0.903935371787932,1149.3426621604488,286.28891389900565,2.2878414421532374,0.5475889097378986,1.0,992.8998645104784,287.98263093656703,1.935491663089719,0.5509364789221867,0.9987339855205982,1184.2590345627002,406.86467025919706,2.2697629255511798,0.7737875465381894,0.9990846957313166,966.8698687606385,420.9921595439775,1.8589880727165324,0.7907137952703286,0.9949446212006319,1211.303973815925,527.5637586555208,2.3969271618118726,1.0367063721028023,1.0,940.5606604998134,531.4770961554684,1.8296207563293805,1.0430040778911969,0.9929326501226253,1125.1655495136065,536.6821894348471,2.2004498703065027,1.0255041359214916,1.0,1018.5366015513824,538.4235870023585,2.0265150888687673,1.0567790082456046,1.0,1136.855191029993,746.1462935336768,2.1637396627348444,1.4625714522910562,1.0,1010.9840389031694,749.8877386127282,2.010105190800918,1.4821218331943655,0.9969777892853637,1123.320835746892,962.6142816898117,2.15167529820877,1.8397751461342118,1.0,1020.2217115946494,974.2081676034763,1.9987153420254156,1.9197333857841345,0.9951027865186595,911.4217303730811,99.47281803222069,1242.8022838912564,1090.5544630716338
2,47,22637.73316187528,0.17839046477276604,0.031746031746031744,954.973352404807,158.3614224381388,0.3282881050762396,109.45148358927152,0.11138266922688787,125.68043702659453,-0.1759560878687319,106.48735194180789,0.6224989133870892,8.41793621152744,0.30980573505072073,3.6672084736416015,3.5118466029702766,0.9704350232649095,2.3983315831960237,9.924984559624065,55.731681144721215,-121.94928889328943,-4.025702093458165,-167.60476587802373,-110.4825210667388,1051.5159282437746,219.66180704493345,1.965842138582951,0.41694643134483794,0.9946984716295535,1068.1391338361314,203.62617928162808,2.0345027416283994,0.3778731389000999,1.0,1036.8610777875517,205.73743724334955,1.9307811561573913,0.38733503176604783,1.0,1093.1935071656353,217.9030423595033,2.0662885076651736,0.41385731320461755,0.8921962839005805,1011.7856073146887,220.7711431370464,1.8654358523058987,0.42261148651740876,0.9012541393658446,1142.282747071222,322.65657135940216,2.1988421991344533,0.5998601824376218,1.0,977.9911104533581,331.1788734631298,1.8513682408271928,0.6114163421825188,0.9985447187229151,1180.046316638023,450.63083113261627,2.192415777291559,0.8265302281014045,0.9995885529524233,954.9063514557319,467.9583729568643,1.7794236682815983,0.8557444114180719,0.9940017185916531,1206.0578865421182,578.3946547029602,2.3108164031622476,1.1006153254224125,1.0,928.859681122352,589.155200961532,1.7493379828777964,1.1130910086063082,0.991851737204194,1125.6890331329937,581.8957380446569,2.1337698925632207,1.0794478963228766,1.0,1015.567164404605,586.9960637793913,1.958725049756663,1.118612294621804,1.0,1140.662002552126,802.3478145782886,2.097203507769178,1.5173747818630636,1.0,1010.1789398102401,808.8417424693995,1.950128983893072,1.5464054194318964,0.99692752405828,1126.4608268937075,1027.0136091439983,2.09334996418909,1.8981236425717658,1.0,1018.5773832254849,1035.0654940577842,1.936423752417557,1.9728896827863092,0.9901321503642133,900.5376920412328,124.01424905708458,1238.6483788137195,1120.5737829388602
3,48,22637.822357107663,0.26758569715914904,0.047619047619047616,914.2409681892358,151.62619635462755,0.3008053167617266,101.9123195955521,0.05625268899376443,111.13007968161477,0.25549866439289426,101.14671696887542,0.11782802533989545,4.313808186415271,1.5564301500612236,0.6506689132798658,3.1011891490218,1.807061658821315,3.141298610743301,9.102175245146107,54.75540027295593,-126.72471803534843,-4.53452080957456,-172.81544381098172,-111.5945167316637,1032.617532388957,284.233249296001,2.015253481092844,0.5642580321370633,0.994225540215406,1051.668634146531,269.62805649151494,2.0921731092900924,0.5243069180908998,1.0,1016.4329240998384,270.0621226823115,1.980137036236278,0.5366402001209747,0.9986499285754454,1078.0622843088852,283.6463962128801,2.1339200319260083,0.5626844216883852,0.9289337387086724,993.3197861161341,287.6316563751546,1.9143051700522506,0.5750526756935381,0.8044658646852864,1127.2434968939874,391.3611274753011,2.2746826237989506,0.7607559855310286,1.0,969.6360939953723,406.3954561858531,1.9220553891713263,0.7826256052947453,0.9980542206009871,1170.3194279622926,525.8105085220037,2.2753692007512254,1.0057876187445318,0.9986605033744237,954.2982627668296,544.5122325838765,1.8533505083488955,1.0410420780192553,0.9878712756038417,1194.1184184230165,669.1384929475993,2.3884002031943847,1.3316925296110176,0.9935563590752307,941.4054905591582,679.0884594568853,1.8462964995000966,1.3436624370330317,0.9840065753423666,1121.3087449874913,655.3145537291656,2.2213358732900943,1.274161257997164,1.0,1016.8167697972815,663.1611815168243,2.051089914277163,1.3229809323883126,1.0,1133.025491648981,871.5825938048417,2.1734507803275767,1.7226475643779684,1.0,1016.7395874513415,871.779473487337,2.0472273919726076,1.7454284702944727,0.9978858184645699,1129.620787355977,1078.651112768434,2.1969208967383205,2.0830242637607714,0.9853261346243122,1026.2195974358176,1077.585886089315,2.0367606116437864,2.148685437553759,0.9757956102525993,886.9958686152553,177.03637758565102,1234.7523189600658,1133.5886024415631
4,49,22637.91155234005,0.3567809295455321,0.06349206349206349,860.0579860703385,162.67762354221318,-0.14464713640476984,105.80928653058993,0.032278887627968766,85.95706487719141,0.17383974865963536,78.56667606629125,0.059850380840042225,6.307913378840796,0.954753756823939,-2.5155189443612516,4.6093905543775096,4.985588452175565,5.844280069768854,11.901611539339287,55.37715070589676,-129.80712075311823,-6.225049980238122,-87.8274612488656,-114.15533055000543,1018.941905079459,332.4501883072608,1.855616620044958,0.6187408027214991,0.9962253094451009,1037.4707260315672,317.8468917499333,1.9225735901512881,0.569869511787865,1.0,1002.5522524783072,321.04416287783715,1.8268752491657874,0.594678518345482,1.0,1069.1601407230933,332.61406357894236,1.976421499924859,0.614863470874726,0.977262951415626,982.631027028457,340.0499888579497,1.7662253611105139,0.6350556106204215,0.7522313214540992,1132.2809655290812,443.3281648431019,2.1324732033584204,0.8020521514377142,1.0,964.0346402397299,460.77444755453405,1.778796070454696,0.8274442194705108,0.9990184721033109,1171.6751307237437,590.302320930218,2.120351551118735,1.052559376430766,1.0,939.9453811427666,605.131524041924,1.7034090512723272,1.0802806343892049,0.9953889716886054,1201.031991248961,741.6761505430678,2.238111528944244,1.3702847060549759,1.0,913.255250756785,748.6336202320039,1.6729923827284252,1.3779684791141171,0.9909097860593824,1120.8133544726034,715.2707880620512,2.0741916158223526,1.2906642376688193,1.0,1013.3308489487198,722.7608631956498,1.9026618046004375,1.3414330766646727,1.0,1111.9096829181103,931.9047931258143,1.992000731638934,1.716157066386334,0.9965689055225031,1022.6395433315926,930.9372400917525,1.9226722430950551,1.7328258936377332,0.9937604182259557,1121.0349445963345,1102.8545951964609,2.033044505182759,1.9898605396915163,0.75,1041.410168042202,1099.133984821792,1.925274444834797,2.0400113395803925,0.7730912690784548,875.9427525436183,236.13839451796343,1231.8070876546612,1135.4688692619259
5,50,22638.000747572438,0.44597616193191514,0.07936507936507937,851.1046086295787,164.9440996087153,-0.1934347886754499,107.66585740735033,0.03818637009114817,84.4980323992729,0.5271265878653363,78.02430411245264,0.1724208547852516,7.497119118969305,1.3168807229397017,-3.374354203815955,5.12143070224707,5.5602660821526575,6.527281794039345,13.832012797409526,54.44609285028911,-136.65049129765848,-7.0587884212280425,79.87723878282532,-112.51270298184416,1017.3351111115397,319.0060843958283,1.826830303627503,0.5849127592415355,0.9963016533719764,1037.016398286955,302.5356602350831,1.8928113348477045,0.5330483801492248,1.0,998.7932486392692,304.54189924918,1.7993012414700007,0.5564586630942567,1.0,1067.5469841309132,320.8750632446517,1.9437514200791592,0.5798254945413694,0.9785303849203879,980.168215343789,325.59440051786015,1.7324797075135825,0.5985495937086357,0.7718102700815332,1129.4481380704303,429.68978192293133,2.0962690720716273,0.7651675978036191,1.0,959.4979015448812,447.6154561082924,1.7433607020810697,0.792999496941481,0.9990541786814575,1168.091826148925,578.9252003470043,2.0832523896841164,1.018314160031406,1.0,939.8717533407336,594.7907024340485,1.6789576299432618,1.0492541954621006,0.9948445532523523,1192.4159811835102,729.939233788904,2.188189023448943,1.3313793778994296,1.0,914.0357523989346,738.5792867986238,1.6517973723026684,1.3407026686621173,0.9900108444950171,1117.1229065893556,708.5050766991358,2.0327427313813335,1.2586965161334027,1.0,1008.6899548207704,717.7203196790896,1.8627277197647942,1.307759567014627,1.0,1107.6382691489089,927.1499005029441,1.9565777533707456,1.687176480749251,0.997018944174885,1020.4757157075602,925.4989325008956,1.8875215866754267,1.6969474082909906,0.9925956724848134,1119.0298217350505,1103.5425187666813,2.003213257829162,1.9615729091676641,0.7500603668042541,1040.8053644817496,1091.4843441830926,1.9009000989920815,1.9965446777742486,0.764948342587894,876.1839990972704,246.44804541540344,1224.3817866805975,1133.7987348177255
6,51,22638.089942804825,0.5351713943182981,0.09523809523809523,898.4664560448765,163.13196970868273,-0.43522132682563963,109.37979740884646,-0.05226522796492561,95.51496808317057,0.22654448728140608,92.32519126135942,0.7431855325866479,2.9969038481843806,1.1056677580560548,-1.8882329048447328,2.0545437162131917,3.1784496275026926,4.273802044302753,14.58441778091359,53.91943530018718,-137.9947275004395,-5.270077529224324,-63.678988879903024,-108.87447441526375,1022.7712653699556,242.59419282743184,1.8531790908670662,0.44603624170902734,0.9938333551740237,1041.3841550886002,228.5875311313012,1.9189279582024101,0.40855744477665046,1.0,1004.4349373675301,230.1714389926148,1.8207989445209636,0.42145755314678995,0.9994279900586726,1070.2871322623166,246.95976489868823,1.9654060989996818,0.44952648444456555,0.9620860997573675,986.2699980462729,254.18671366917974,1.758455169025919,0.46941949749822043,0.7728796112655031,1129.2771438661664,353.19980596210064,2.114702374317482,0.6356580717439098,1.0,962.0370619192631,373.29244743436345,1.7621818128639215,0.6691103126467421,0.9989599240218214,1164.6028670512735,497.0611043501578,2.0945959716246723,0.8827339361721992,1.0,942.7976295701294,519.8460505803473,1.6976139478833776,0.9236787434345199,0.994261572520034,1184.3146419267107,639.6216051866959,2.194959373196392,1.1847925386429725,1.0,916.5639760984706,653.2733871585558,1.6709322183730277,1.198401588450238,0.9896203710518428,1118.571584783709,640.6651351053903,2.0547748092737654,1.15051398513506,1.0,1007.3357468743186,646.577091064689,1.8836434252821537,1.1951064112756151,1.0,1117.2407958984975,864.915841108257,1.9913866992424472,1.5886066878220495,1.0,1019.2752429327279,859.3565590578282,1.896283111148268,1.5928020978030246,0.995499308955709,1124.504033680852,1077.5283346036465,2.0270184400018585,1.9304191799751331,0.9749631395975497,1028.6789881234217,1072.6375499210433,1.898275384207522,1.9776228699712612,0.9611830338807389,880.6424850744612,195.6383671295632,1215.5265184505024,1133.1762620137497
7,52,22638.17913803721,0.6243666267046811,0.1111111111111111,962.9387574832197,160.9322534363021,0.3221916298786019,110.36683421283865,0.09877912896807872,111.33605183017166,0.20963804873350922,98.76409371869926,0.972789693805279,4.47023726935621,1.0251878926991422,1.3340047093156042,2.01507538620889,2.203519186074713,3.4344945109614304,13.201993202413714,53.93599568140942,-138.02469756142347,-4.1458008049573465,-167.0752979490339,-105.07323091122659,1027.398524820561,153.36329665494168,1.8840230467227972,0.2906171672658861,0.9929342439436004,1044.9667375105805,140.67540588828672,1.9532598952178064,0.2579839749077756,1.0,1008.9990100936485,144.33777682747203,1.8494814096863734,0.26475806374533006,1.0,1073.0290419411547,160.9105066835205,1.997764448365235,0.2883411550894716,0.9397901676217131,990.7788101263075,164.2418091337828,1.7899240638891818,0.3112925089774134,0.8256876449207997,1126.8023704197276,265.2784042272019,2.1385726417318875,0.48757524417742326,1.0,962.247156670525,283.49540004615557,1.7859488855858487,0.5138013185638486,0.9984575167943136,1162.8157681616262,404.48708341094806,2.11790278796919,0.7303226374306792,0.999836627238011,943.6681844893385,431.0805708688022,1.7278620110759026,0.7732491630957798,0.9920901798904438,1180.012976360689,536.6282986429516,2.2191343777170682,1.0064606136113814,1.0,921.006157567041,556.5523073727678,1.7017140687558645,1.0355128058943273,0.9901372674076426,1114.6789058945928,544.6721642052343,2.0773574238880492,0.9945396231374405,1.0,1002.7311491804945,549.2994689272456,1.9066831921231413,1.035836414767927,1.0,1127.017206605633,776.3168960894162,2.0288018132379806,1.4432954831676654,1.0,1010.7324384323279,775.7027747585962,1.9092981252857912,1.4570849720824097,0.9928045775912011,1121.4308275902517,1013.8080303822053,2.04926323993609,1.8442348254743433,0.9916746260687592,1020.6490061910686,1001.0078432605253,1.9071390327480475,1.871878045523481,0.9776394518721686,888.6620353239088,109.56921258114242,1209.413166990518,1115.1648227952423
8,53,22638.268333269596,0.7135618590910642,0.12698412698412698,998.491936264597,160.9498049253027,0.6419750349790767,108.51350244453913,0.026937982071912725,91.97112944890426,0.061206256917114565,74.58814248538378,0.6930445166644441,1.487212323302735,0.18418804795013985,0.038758950398050634,1.6519293553150858,4.272701785838471,5.36880648108394,11.724396213874021,55.942846451156285,-136.00788322911856,-8.813272874613494,-171.30756771732,-103.54666128855101,1032.6706317741975,105.05680874389144,1.894529311670179,0.19911244638344033,0.9941404136525983,1047.2148313039067,92.52425265485913,1.958560690187152,0.1620685989607324,1.0,1011.877682760453,93.23215959685464,1.8597088464092952,0.17201481692941073,1.0,1075.58811515618,112.03617211048481,2.0022145340729254,0.19762576155660988,0.9135726966602772,990.8045459543983,113.00846295791064,1.7872406344616132,0.2184962566354538,0.8887708089366643,1126.8381323381566,220.4335603604495,2.1326235553639834,0.39895626097510867,0.9999034590657333,961.3785590181018,234.28403313649412,1.7834599449015718,0.42234897787695375,0.9989500621290865,1162.6618712037264,354.74735319680605,2.113693936418748,0.643351318115542,0.9990595665650425,942.117442090611,377.77915227681007,1.7219960670784935,0.6745229302224558,0.9955899469511668,1180.864328301903,485.8485665628473,2.217288739899245,0.9056095576064319,1.0,921.379501847334,500.93139543550944,1.7035954631663417,0.9324940056076579,0.9921755851748494,1110.4818725477874,491.40804471871417,2.0699940559270473,0.8980969283914386,1.0,1000.1018594319404,494.74157363728534,1.896761415764594,0.9263574011866385,1.0,1111.9376186290467,728.8669382636446,2.0018422886292466,1.3510533077151,1.0,1015.5476409783323,725.7358399080802,1.9233039596798054,1.3666491095232203,0.9971533665510528,1111.2107288241737,970.5738055799445,2.0313395710683455,1.7650501726033727,0.9998872627567617,1036.8990805596686,961.5525830097055,1.9298785633740527,1.7954659567874867,0.9956174432855619,890.6240874051812,49.274380550616385,1208.3607445654357,1090.3350443926724
9,54,22638.357528501983,0.8027570914774472,0.14285714285714288,1029.2678949635913,161.04600687482022,0.447428185721606,109.14405263182185,0.3788892811831507,88.57266445134051,-0.28716895711006896,73.11998644084741,0.5337203851244905,2.2187407206618817,-0.48849370796671077,-0.8077621934387272,2.086856552206184,4.852248339912405,5.822138127696522,12.349659997427027,58.14164004259351,-131.85019114780712,-10.963936594662796,-170.6095992449654,-101.27812432773585,1032.2644546930549,91.90053636866222,1.9008869142123217,0.17471650798580957,0.9952259154319892,1049.2368136059547,79.89270012888029,1.9609475561982468,0.1396302940806264,1.0,1015.8293626668694,79.65356096679186,1.8680843105480063,0.1454290007536621,1.0,1077.2277081103598,95.17385595332777,2.0048815878333364,0.17271311204687825,0.9252589496980386,991.5752642428881,96.96263572000908,1.7941589572711827,0.1860824671016773,0.888287651654555,1127.2521529242208,205.61321838247153,2.136748982816098,0.37251860928228464,0.9999109286680732,961.6473612136068,215.40669985085353,1.786052738785945,0.3914172386073429,0.9988950753577307,1164.0545990648473,341.7456523092309,2.118280531890873,0.61787306177999,0.9980251351995333,940.408704723825,359.27282216439977,1.7172142158759935,0.6459680251673303,0.9949902698015737,1184.550032895034,466.41504337498964,2.2260097307921423,0.8680960222261108,1.0,918.5772471862381,483.0552794228606,1.7005812208789028,0.8944889417017299,0.9923109099104492,1110.0401021100063,481.8402854053459,2.069405333410579,0.8802870899353992,1.0,1000.5811046597473,483.0919106183057,1.8936891237405258,0.9054968450391767,1.0,1106.9539373793236,722.0320431173025,1.9997575066253654,1.3403025242720408,1.0,1015.461122561625,711.148466590518,1.9279414277999165,1.3446933830183203,0.9976801311315691,1108.9741572131297,968.5648646335607,2.026382334632923,1.763313068791565,1.0,1038.8028568969164,945.868149158623,1.9325656915740586,1.7715308120113993,0.9981637884286988,889.3327263344377,17.08297632303237,1208.3927862327719,1087.2834267028497
10,55,22638.44672373437,0.8919523238638303,0.15873015873015875,1045.9961591952294,168.97387502905434,0.9535110293507443,113.12836392540676,-0.23489626650561796,87.82584373865846,-0.27681478029851825,71.03551454854448,-0.19180769498479946,0.9669427897412053,-0.9247854769708883,0.6448729190153308,0.6435390916611858,4.419810766581382,3.810100738180187,16.573604484754984,59.28727094410067,-126.93788041236859,-10.250233743368284,-164.60695496516269,-98.56204458442532,1035.8785163834798,114.76337210047664,1.8167650232167003,0.20671809304626956,0.9958921384937508,1053.2238982621732,102.52190725839657,1.8780259400649157,0.17537363945304535,1.0,1017.9227972476956,101.83700915517538,1.7838679618967115,0.1775811555832884,1.0,1080.5726875323187,112.72106909560493,1.9166940179489733,0.1960962141420765,0.8996960120237798,990.964327428514,117.09168673126173,1.7131559309125863,0.2088763595404227,0.9057139122066097,1131.500319125878,227.880634245406,2.04595734658666,0.3953261189783922,1.0,957.2244222472503,235.18247011766397,1.6943570488639055,0.40763754599414004,0.9990893498554444,1164.7579032153133,367.32774943178435,2.0251096145052814,0.6318301074080831,0.9999284384691935,936.5571716196562,378.9728309966188,1.6345545911805945,0.6535890522969918,0.9963780110796432,1186.1645057251842,498.11877249595307,2.1316097258684055,0.8860650221592122,1.0,915.3028157438189,507.1860456117082,1.6161067188973681,0.891609519426414,0.992448264098845,1112.2685494968118,505.20208032139226,1.9824903893586774,0.881833402816282,1.0,1000.405814952121,509.4622475898984,1.8063021234059435,0.9124926217120559,1.0,1108.3238043815782,751.0026559681279,1.9150248572869564,1.3317112594911262,1.0,1018.0552492029984,748.0371947807859,1.8423863548362993,1.3469731180473374,0.9983833274125961,1106.103137676863,994.725014061687,1.9262049706800417,1.7287212193401562,1.0,1034.088199036529,992.0558398293015,1.8386599582356276,1.7795899081298543,0.9989701861608191,884.114222070196,21.598777319522533,1211.6351179888813,1108.2508620370631
11,56,22638.535918966754,0.9811475562502132,0.1746031746031746,1023.1209788185128,173.3096942080665,1.0319132825099304,116.59807203213558,-0.09557436491658391,94.55013788360455,-0.24723956529968927,93.33162020300846,-0.3812397895173444,1.1270130483783283,-0.010185710464075404,0.43078955158909,2.321816499695418,2.6997591005664976,1.0791763656496411,25.46372818113927,57.65170632067759,-125.88431949639826,-11.27169277915948,-163.0730072666486,-97.33455817116494,1035.7320183273448,179.1082732374637,1.7635146199711647,0.3061897843221317,0.9954948188419719,1053.9733365025156,162.86845998467226,1.8270598086888832,0.27400240096467854,1.0,1015.9776982370089,161.61723329479324,1.7347788014489518,0.28392996164800877,1.0,1080.5727500704345,172.0175510026088,1.863079976391355,0.29186297758579866,0.9207602369585061,991.6400297351122,173.82798673413504,1.6633884629192568,0.2996444592263896,0.8857446019046432,1134.1579341193049,284.08317532243694,1.9970345572795416,0.4827312874807999,1.0,954.3215314382838,293.9499683083776,1.6482521332285698,0.49186564904719665,0.9985338486047217,1167.0315274390057,433.30635357431265,1.9753118158708791,0.724417764505977,0.9995607728872307,932.8520811704034,442.5570522590468,1.5869639834780869,0.742358235539528,0.9945191618695614,1182.7351406050427,567.2997324574202,2.064678787332192,0.9827256885582079,1.0,910.4109757329014,573.8128612520106,1.5641929581547207,0.9821724191674573,0.9930287727851718,1114.3284125908908,565.6557906669136,1.929918028973742,0.9600784322038162,1.0,997.6254948362842,570.4856019325316,1.754901076646234,0.9948489861370939,1.0,1112.2492649998612,815.0143092633233,1.8726927341309278,1.4049502706628716,0.9997829660371492,1014.9928433171565,816.7461563362057,1.7835483012893392,1.4266562978681432,0.9973125612770862,1113.5690991745935,1055.9641251703672,1.8880358061368248,1.788926450048651,0.948090420374397,1019.1464331927108,1060.3772446153282,1.767749475398291,1.8519735872737721,0.9539312023111215,875.644664336756,60.43987374571345,1212.8616513605205,1123.0383698600745
12,57,22638.62511419914,1.0703427886365962,0.19047619047619047,955.2989776863735,173.15075283574967,0.3673911432351679,114.51538647379695,-0.04862854892441093,97.75105324304434,-0.3010355610567339,87.56525898500107,-0.509314147601005,2.900214996893054,0.31733092143969077,1.007882664228083,-0.2929826692885571,3.9375243914869826,3.3001468317058604,31.86233549626229,54.42787390125144,-127.35287273345546,-15.6992860080398,-167.59339966489603,-96.31569711038871,1036.8961486912729,260.4612688690697,1.7666547078474,0.44308385017886603,0.9957848997074342,1053.597909663134,239.1810913347572,1.8345316962462945,0.4046618214248302,1.0,1014.543542352583,240.47259136140866,1.7351535925587869,0.4225521885149176,1.0,1083.332676793203,252.2137791447362,1.8708926538123682,0.4350988315814498,0.9333653205548568,990.0152541845756,256.5293498978968,1.6632202672860275,0.44606239749333565,0.8860212238929054,1134.10937811612,366.8551492633106,2.0052134591338633,0.626777698989024,1.0,955.3456784792322,377.6179807855929,1.6580779017412914,0.6362180334661004,0.9988558820730539,1165.093123378673,518.5865485328044,1.9700870441217022,0.8664629364754673,1.0,928.8223907734539,532.0348219957126,1.5803041151347406,0.8903216021562917,0.9945874103246246,1180.5424562340736,668.5632915146793,2.0647287531704097,1.1622905904433807,0.998816139326963,906.1414094598908,673.0917348176374,1.5581681792050086,1.1642429641904535,0.9891461771219263,1113.00797691979,656.8963480326953,1.9271193266425053,1.1119075688907203,1.0,998.215484471795,659.7432968459221,1.7607149313344235,1.1524085131975341,1.0,1116.7577524322976,891.1872086786922,1.8779354943118207,1.5402643251412558,1.0,1013.7123043631433,886.379723723033,1.7890459354505894,1.5550869360425172,0.997483004529086,1113.342829065492,1103.6483256818653,1.8922449650545163,1.8640395206269422,0.9062461751393809,1025.7364985121098,1087.4954660385965,1.7845440481893071,1.9022157761202625,0.912840424305758,870.3292633065169,132.16593519608114,1208.237700826509,1126.6740023791822
13,58,22638.71430943153,1.1595380210229793,0.20634920634920637,912.0616576167214,174.00177392393167,-0.11489870139561742,111.78625326060501,0.1398050369425305,82.72959226294032,0.176201655997623,65.96847148820513,-0.46224873150257884,2.329883634141266,-0.22481148890210473,0.9529299749361693,-0.047527224142978594,6.309077233592221,5.380662788294632,35.02320624132385,52.90516015368026,-127.81065953618884,-19.299703538066268,-139.52636504040834,-101.05520243950795,1034.3124182210368,296.99604782612835,1.7555874863807241,0.5045805169904094,0.9975912904408569,1050.9338966716837,277.8397119768655,1.8193154677147758,0.46922596833554864,1.0,1013.5910030171816,278.4935241339936,1.7237444271801208,0.48543802893048,1.0,1080.1537958004153,289.7085186312587,1.8598203996385383,0.4951956843991433,0.9459397997589232,988.6770877080797,291.38607576741333,1.6542501635169318,0.5081867838063969,0.8970686513106524,1132.5926722177787,405.5021683806197,1.9891975167537514,0.6866229560153555,1.0,953.9863757157119,416.7733920837194,1.643077609390336,0.6981469941505309,0.9991998199912954,1157.7157353406792,558.3102446479858,1.9475747711030909,0.924138605144171,1.0,931.2345227250948,570.0331581907776,1.5728974053784592,0.9479572208420799,0.9960520028496939,1171.9557684717645,698.4780090764773,2.036691428282981,1.2048863750467533,1.0,915.158851315716,708.1150687748551,1.5610919039593754,1.2212954866272678,0.987054017641347,1108.7569358322078,688.0847717715089,1.9102710646303116,1.1594689714462825,1.0,997.2956099369677,692.5252850816287,1.7519912834032476,1.2029871846231472,1.0,1109.863747788259,906.9070582248917,1.8552679299159436,1.5557411483249801,1.0,1020.8546999364055,903.4300179222448,1.7943507128081637,1.5736691760960402,0.992665014281022,1105.7450125865394,1099.9993018765983,1.8704873596212972,1.8486042415218393,0.9301714241506389,1040.514715291339,1091.1988714824345,1.7979435265812553,1.8913069730719763,0.8910040883907716,873.1410685876306,180.84519196991073,1197.4643000195333,1131.2033153003622
14,59,22638.803504663916,1.2487332534093623,0.2222222222222222,901.914209224245,171.20165417090692,0.48181757106040607,109.54528204066236,0.15174778884369483,81.51164415760184,0.7536825449876959,63.789547427708065,0.3477263200990138,2.074021351079959,0.1459797909285528,0.3338336651244032,-1.1262910899435647,6.557602258368492,5.859306041510961,32.62417354464737,50.18039800819265,-131.2195981869069,-19.30915101574724,65.40430474593836,-103.57727076443992,1031.4665971124894,288.29536133396925,1.7827712246205865,0.49954302605443474,0.9974187552586756,1050.120974464851,268.82680949019147,1.845690585182383,0.46354076176115533,1.0,1013.6662502695134,270.9937156654999,1.7504007444733598,0.47714036525579645,1.0,1078.091855269143,281.24347478441604,1.8868838978532245,0.48679786077701936,0.9555300833025386,989.1490010415949,282.0748889085142,1.6826492992093176,0.4961236604351279,0.8650011302196104,1130.1018203539854,395.685613600618,2.0136854252628695,0.6803376086827528,1.0,954.6847113114346,405.86835399492367,1.6668391714770017,0.6894914009799172,0.9991166302681919,1152.8426646370458,548.9242077701605,1.9757339964926932,0.9263357425154267,1.0,936.145653750477,558.3023947084228,1.6046957030233122,0.9375485745717748,0.9954499450028139,1168.4195286066515,686.8138575103619,2.0638509718460294,1.20703905983228,1.0,920.4117418946909,695.0336548605746,1.5992777580208832,1.21519488593862,0.9875765253393748,1105.502283765337,676.9603497059777,1.937890183729038,1.1628742570591921,1.0,994.7563503893294,683.017018884763,1.7768864821175578,1.2091045343189402,1.0,1106.9463012103154,896.5857930217944,1.880276609648909,1.5640997201875924,1.0,1020.8776895039658,898.0917451462215,1.8230325794409001,1.5862513970179133,0.9952487813144849,1106.3507648957298,1092.7305441461795,1.9017399137957312,1.868553594534004,0.9549871117980463,1040.4427042516056,1091.7478952413771,1.830335080483696,1.9235102661164807,0.9313634440836714,883.5507317445364,192.2802015250359,1190.8726737849624,1131.2020377793117
15,60,22638.8926998963,1.3379284857957454,0.2380952380952381,919.5823698823167,169.47999304810125,0.7536592417509991,110.54259681630911,0.018304173620821346,89.02209834538003,0.7510386146189052,76.54215459675258,0.23582558601243958,3.4314617950183695,0.45254467667533926,0.5764414119148209,-0.8456140010989873,5.020888964889425,4.537770619281954,28.02796453596146,48.91940514633825,-134.59200394633754,-21.09319325740729,-91.5370611172749,-97.65561072914052,1032.1081768455492,253.7993375620746,1.8079551116701962,0.4464839804347869,0.9965481848756081,1050.7414409868902,235.11419118705265,1.87337399873116,0.41251404914773154,1.0,1014.8668587506379,238.94081378641957,1.7775037278941244,0.42254119343571844,1.0,1080.3998354098928,251.59741800514436,1.9109750950390816,0.4333194160478477,0.948831746212951,989.9653527143784,252.762919348168,1.7089091478644576,0.4472991624462494,0.859977743074144,1131.3817641017074,366.2241947054225,2.038539378494624,0.6357618761835264,1.0,958.3714965601998,372.69508857802276,1.690636456663456,0.6424047470183452,0.9989540129847743,1154.8270831404134,512.2112852898242,2.0022546936997454,0.8828932653298905,1.0,939.5726691015682,523.5628008897689,1.6340909729991215,0.8884453901276882,0.9944808548905774,1168.6174734177785,653.5664245508968,2.0962080012497073,1.1667451775278814,1.0,924.6974055617826,659.4081959603733,1.6254731703072247,1.169040342516614,0.9879287015391413,1107.9414069744878,656.1227514782563,1.9676122523327126,1.1362035082860882,1.0,994.6187474355189,659.5058474594713,1.797328184230406,1.1834788980608042,1.0,1111.9344240638204,878.983672433832,1.9124199775824753,1.5578503885768535,1.0,1019.0246078068324,877.5825490819213,1.8378657090134856,1.5714086633901492,0.9942006486768749,1111.8831366318539,1087.9244192371925,1.9323379029211891,1.8847734248592791,0.9513907254716611,1032.1516621132416,1083.0783643695702,1.8395846343427362,1.9358935705587772,0.9182409723450754,891.604926175064,172.17711188058055,1193.1332913214005,1130.5325170838594
16,61,22638.981895128687,1.4271237181821284,0.25396825396825395,897.1466103914381,166.87499671871836,1.0120723400871483,111.3739698365908,0.03473057761101769,100.16145367117161,0.5549787149440387,99.83112858735781,-0.41619793747931144,3.4985389763466985,1.7498249311718344,-1.1903316144947924,-0.05896587320998693,3.3633575606458694,2.780445583338479,22.71391243621722,48.05440770806896,-138.05605047394405,-18.49173154348886,67.64441335454195,-101.35321119301808,1032.7202385870016,234.9570534860422,1.8268915903458642,0.4189168664352621,0.99629857488302,1050.8148759089052,219.31499552496217,1.895304528860266,0.38287185475880636,1.0,1015.2776707692643,219.29181385637497,1.7981574010763324,0.3903258094274368,1.0,1081.1719821912227,234.66631752822397,1.935544559231659,0.41002592654011577,0.9600139159627701,992.1344465044965,233.73115362037728,1.7343659292456417,0.4203789671381622,0.8622939744808418,1128.3883216921024,347.56188147590024,2.059964059862174,0.6102079357774064,1.0,958.6424295140889,353.9183473770689,1.7138190748107638,0.6131592647641918,0.9990702970835562,1159.7989630046861,493.7112338386912,2.0303494437890675,0.8576453355215724,1.0,938.9327151380066,502.90758629394907,1.652628750052675,0.8650964024835622,0.9952279225345702,1173.5245731427003,635.7705836890949,2.1242800212586572,1.1417476081389801,1.0,923.6517548483973,640.0759479040205,1.640571303192551,1.1488250901865404,0.9897889085112561,1108.859826500515,631.6661643780579,1.9865586334789211,1.103653446699403,1.0,996.7132652808599,633.5601274393684,1.8203381499497153,1.1457207511761989,1.0,1119.6225352497088,850.1552645539623,1.9436950085549942,1.5234944097120973,0.9935238800612334,1014.7689814172871,843.673655681742,1.8485196932436185,1.5316533178768617,0.9898506211349425,1124.5002336522741,1057.5298976079416,1.9753787375297687,1.8531973186189017,0.8831740140365488,1021.9037611749319,1054.6009222045154,1.836681613448934,1.9047793403785562,0.8703261239782516,896.3284203391546,152.81523499400927,1196.977044793866,1089.4124152821998
17,62,22639.071090361074,1.5163189505685113,0.2698412698412698,891.9040599305342,166.90080180715393,0.42665858141070495,112.51683608327966,0.29048994239856185,105.25323420919129,0.43801924102599643,101.50602262521136,-0.53682743268999,4.768769371223254,1.4230341239621158,-0.4447213811026556,0.19856946384543192,3.180418979497612,2.0595123338271106,18.79411361572803,49.33631086795104,-138.79062671167847,-17.18120123858051,-63.453360067130475,-101.38995582799441,1035.7743508682004,231.22614627410624,1.8290950926089606,0.4115864288282428,0.9955616889343284,1054.0380057021514,215.52949228091083,1.8939823275106613,0.376589477193058,1.0,1018.9749307188961,215.3109346008664,1.7999508432955316,0.38456852552809073,1.0,1084.334486196662,232.42345512581133,1.932469687586705,0.40949516747007625,0.9642678727890226,996.1705851198075,231.51694933528492,1.7328962667733612,0.4155495895658114,0.8484694525808364,1129.8246081466486,344.9480758398127,2.0628676895146287,0.606798516150855,1.0,958.796734894832,352.4219632644753,1.7113431148321168,0.60832666190956,0.9991153862332496,1165.6189417120431,491.87913976105386,2.0451922763614543,0.8551486397990178,1.0,939.5288160406766,500.5448186483831,1.646921717306395,0.8645795559521003,0.9956764864894286,1181.257990130125,633.7852204771739,2.1332724142077537,1.1340347657531409,1.0,922.1960973826511,633.9788536573989,1.639458244295517,1.1342298896164136,0.9909181075331145,1112.8214977806404,625.077109236668,1.991551860665297,1.0960730741938571,1.0,999.8587915662473,628.835242933243,1.8238572770388186,1.1348479721190894,1.0,1124.6405367857494,845.0996210803826,1.9488815494233263,1.5118503868693214,0.9934600957715412,1016.4066485690576,839.7748502836282,1.847560578953731,1.519157811627622,0.9913653363384102,1126.1242128781457,1050.8076537068848,1.978685271737311,1.8321079669135367,0.8891160196079376,1023.920606168785,1052.163850934502,1.831401460342555,1.897317250649439,0.8866253266296309,898.6758522873922,144.32100179217977,1203.6448334112179,1076.4754959287097
18,63,22639.16028559346,1.6055141829548945,0.28571428571428575,926.1796302424561,164.77526085881325,0.3423574396209629,112.08675060007718,-0.019383943789811564,106.38780520074081,0.1899417280066436,105.69610751751534,-0.2598609306917816,4.187892798905833,1.4631051746504964,-0.28897477155737733,0.31625842726475173,2.454307326670601,1.0378157424211043,14.32514894862573,50.527034566841124,-137.85606287626305,-13.726315036514631,-170.68802077085093,-105.72767866744287,1038.0535740151747,236.5013081882357,1.8659270566192543,0.42784914735862767,0.9958283869124847,1057.8555803661611,220.26065561603153,1.9255112920092377,0.39163158724853353,1.0,1022.0493509453535,220.3615001544983,1.8325364393781458,0.39761788529778863,1.0,1087.6403838410033,236.7664164368217,1.9635104764918456,0.4256838359245135,0.9559606293855222,998.4059129552071,235.1084779506518,1.7622416845740565,0.43093303456280035,0.8624767874875721,1132.460693335152,347.8555148723666,2.096699037830643,0.6201836143080528,1.0,963.3076139145492,353.8149379313089,1.7463304062003218,0.6276777223010452,0.9990619941852337,1169.233109903504,492.38106723758045,2.0817201034490953,0.8707131787592275,1.0,943.0080828597715,503.36171518095597,1.6787429326111087,0.8866194049652445,0.9958276710201555,1185.7736922961253,635.5468394472773,2.1755122704459797,1.1548009248969417,1.0,923.495478181363,634.4200527179671,1.6695758889545902,1.1519685530071258,0.9916706324713151,1115.8428398867961,629.013755746146,2.029685072811726,1.1188604478079984,1.0,1003.1077131995663,631.6180919250016,1.8575384646295288,1.1579019213657444,1.0,1125.1921194654617,853.92621419276,1.9834567346561374,1.5505502554893156,1.0,1015.6361502523232,850.7417190676638,1.8755422414023288,1.5615850019792767,0.9971781957202603,1125.3597140713464,1073.751814904225,2.011615218125891,1.9004931666112106,0.9554377952992844,1021.3576564176202,1076.0298726057435,1.8537164884380766,1.9666463312800668,0.9553199823263883,899.4606967629835,145.17699030079729,1208.80685832098,1113.2327265139518
19,64,22639.249480825845,1.6947094153412774,0.30158730158730157,921.130506820293,162.83120370818074,0.6748668523562118,110.05265892083354,-0.016877643905483075,106.70253443195978,0.17862323229567653,111.46555507000762,0.06426907194285553,3.260896500573958,2.1722709399727465,-1.1239556802174464,1.0000765373570295,1.6763098020278386,0.9322837781468116,10.217117280308461,49.287401556490664,-138.39998781004948,-9.361936545308865,-177.67720789512535,-107.24827925453235,1039.2348114360775,242.5884856480596,1.8911250960535184,0.44209523776371834,0.9958192818496954,1058.9878004661482,226.95549688025002,1.9585454577473473,0.40348136107942667,1.0,1024.6178469829517,226.9082575581847,1.861093616094878,0.4122182890868522,1.0,1089.9315229957376,239.56420046329592,2.000886975593029,0.4395574567759374,0.9652336427593413,1002.8168834843941,241.4477006174282,1.7944200459623456,0.45174781730409047,0.833681826077763,1136.7448945530768,352.4752248856888,2.1291413647493567,0.634122679252263,1.0,969.2954906638308,357.0780198368061,1.7817460178865427,0.6449433497687573,0.9990264087858758,1172.7631252569797,493.498281855473,2.1145983782435787,0.8811189480697986,1.0,948.5918962347491,504.79324882395116,1.7143979728072907,0.9015902701192439,0.9957134899311862,1188.388188353289,637.6672292137015,2.212195373773932,1.1714683510980604,1.0,929.9363625108656,634.6401356216327,1.703102199780932,1.1683738202538567,0.9917858998089442,1117.636998657498,621.3529281021189,2.061742259064456,1.1213395004795819,1.0,1005.4557528998423,625.4277854914227,1.8911251926630235,1.1629936821376214,1.0,1126.4234372671062,834.401730416938,2.016633300254607,1.5384024549245732,0.9967747891843164,1015.7491846135448,830.9973153193779,1.8973948170060977,1.5500396233003453,0.9939969795668452,1129.452269456224,1044.9469882715348,2.0459947739719264,1.8724685067598261,0.9535454173151524,1019.5167277288559,1048.6164911632738,1.8816999915802153,1.9466220497148445,0.9502839445329447,903.0438500205704,151.7606618856631,1212.4941813530522,1112.9523720430793
20,65,22639.338676058233,1.7839046477276606,0.3174603174603175,891.2521731679334,160.66703260864665,0.7311762845631917,108.91800292436056,0.4017964131105174,106.57897742983828,0.3732295141637058,109.5827493168844,0.5940536818364825,1.646653771442652,2.5995057924148726,-2.3827243942884255,0.2939893140384223,2.2138478358120226,2.3346734087596146,7.5547800629832444,48.02653083817707,-139.93751565117023,-6.699398143155733,-178.77141913330584,-104.48069618447764,1042.982849192985,245.5095449791557,1.9143637125126742,0.45389380940107343,0.9949334378073353,1061.0381436761654,230.26980929135095,1.9795597854327431,0.41643692300825513,1.0,1027.7505188811767,231.95744582765863,1.883298833436589,0.4291750340839624,1.0,1092.1154143068757,242.97922981347142,2.023320530882095,0.45068710130112893,0.9609739119117574,1005.05413358102,243.9255939295929,1.8187086458309336,0.46584136798122416,0.8419456010675629,1140.2288125404298,357.4990536577497,2.154434101826868,0.6511966857450897,1.0,973.3048875688577,362.63484657086076,1.8072757999097748,0.6575873738856148,0.9987706072458745,1173.8656728423357,496.1376189460878,2.137668020958827,0.8922532217732742,0.999915987970188,955.0276802416458,504.1871909596059,1.743568403207047,0.906660427892932,0.9944622501175279,1188.349602921332,634.3281075480104,2.23647016967035,1.1843191456240738,1.0,939.4703793409379,631.2933050678305,1.7326257158605343,1.1757878235243675,0.9921971689670047,1117.2867849770473,619.4768831555909,2.0853912205018896,1.131866205139935,1.0,1006.5909019990146,623.596832806751,1.911816561317295,1.169525358779904,1.0,1129.4453361452486,829.7016428378663,2.0416861149000605,1.5464482242168391,0.9950222553569785,1018.0690471516058,826.4720806897274,1.9223299358706347,1.5525827357547959,0.9907678968962036,1134.8970147761418,1040.224900819817,2.074954132365884,1.8823259340370722,0.9303114039336924,1026.2395787250077,1030.4929464403444,1.915383169969374,1.9291132640173068,0.9191621917995757,911.5116670080547,158.97743496203185,1213.9565018793512,1085.6228305942032
21,66,22639.42787129062,1.8730998801140435,0.33333333333333337,869.7219815872688,159.84921134491154,0.6236898838452448,107.82310055315993,0.08895718427817498,105.82317464181477,0.5968456867568712,106.34203340538227,0.9636395212890296,1.6852877211050266,2.1101226586850825,-1.9442802123809457,0.010590038219655873,2.2532194099284677,2.443525426375788,5.947816471434707,46.2790983627189,-137.42999519842851,-5.014681973892938,-179.17683220829906,-103.67875643794346,1046.9940132048937,247.78121910154422,1.9388264374568653,0.4642164470245517,0.9943723333038221,1063.8723893447689,231.64290597462613,1.9988793143179127,0.42244128367420414,1.0,1031.1321313172537,234.3238236463772,1.9042085906068524,0.4401632724756829,1.0,1094.2769310645463,245.0495584534118,2.044741350283773,0.4565309646130453,0.9515409160264012,1008.2004465514435,246.2527630567281,1.838100257986449,0.4720777537056835,0.8582048266510456,1142.4558635282722,359.2429978762213,2.1785424719241084,0.6614630118409625,1.0,974.8526507781863,363.23271542211626,1.826094915778402,0.6686396193145355,0.998694087961679,1175.391972043295,497.044487975131,2.1554450979195905,0.896868979919405,1.0,958.8568126090788,505.93045171466883,1.7641123276258672,0.9149820345428815,0.993874575550214,1186.5166966945285,628.5632667818807,2.254735480547735,1.1847246537101987,1.0,946.8015174609671,630.3324701194066,1.7611438663319112,1.1872146519011266,0.9916633082733254,1115.365827013228,618.2438514146271,2.1006846874578433,1.1363100443774872,1.0,1007.4426643610273,621.8595344556998,1.9287870309215385,1.1746056899242219,1.0,1128.8959308805802,824.3048138555267,2.0571626349569985,1.551382856872529,0.9956575947997502,1018.8338877399482,821.1264232317274,1.9397695499902579,1.5570785833130447,0.9900529059891493,1133.9968922390713,1032.9595646645735,2.0864588806219735,1.8864294427377541,0.9402147057211174,1027.740376076857,1025.6023890985537,1.9303767248572896,1.93404429266981,0.9213775170219409,916.7715411251415,162.86800794725826,1214.337580847979,1067.569563470946
22,67,22639.517066523007,1.9622951125004264,0.3492063492063492,838.8915885689113,160.32583699998943,0.5113226755801733,108.05059504632823,0.2560693408377233,106.23621133602235,0.5560616206364285,101.43138472603098,1.016951635159982,2.5930525482023055,1.718883336509086,-0.9876506928480471,1.072463378125608,2.64429901563375,3.418428295875899,6.195873395698172,45.70915226966101,-136.39604391612608,-2.590442108940673,-180.14240887467795,-101.38492191434992,1048.728685086753,247.00869413035116,1.929887011236217,0.46206564685650975,0.9951549768858772,1065.4830137511476,231.04636357808596,1.993091347466693,0.41936875067621515,1.0,1032.9450244599127,231.74906887026748,1.8965380764924133,0.43501788301814487,1.0,1093.6068651552455,244.79156841126272,2.0404036395054828,0.45195996064274646,0.9526514763302305,1010.7858854517202,247.82174414196854,1.8326813759964236,0.4700850446541737,0.8819643351067876,1144.6777630671188,361.74115781518884,2.1714516465733387,0.658065488718238,1.0,976.546766719332,364.2480932834898,1.824892436267103,0.6664795616734662,0.9988705006843225,1177.0306810920442,498.56075425671685,2.1460083783278607,0.8964757507355304,1.0,960.5098614708364,510.38050913733025,1.7580968126254255,0.9170199575135773,0.9948425006537646,1187.5871644732986,631.2338894757515,2.2419988724863726,1.180618397196527,1.0,948.7669233214995,635.2501357369944,1.7587359769725077,1.1850692672514358,0.9922882486256217,1119.1106570306063,620.5495483494074,2.090281976244409,1.1331119983107407,1.0,1012.0053932029866,623.3249837360376,1.9245526677414047,1.1730858064184464,1.0,1131.6639526529466,824.9158498295917,2.04888288779202,1.5432565063058028,0.9932259629550885,1020.0699454740381,821.0247942800012,1.933641999010849,1.5488725164103265,0.986488027936655,1134.1563436264225,1027.8631273015385,2.073320575482814,1.8716049474300251,0.9148399220208882,1030.5444708008906,1019.4956511072088,1.9238494616928525,1.9133887950350643,0.8839449185656205,920.2686716596133,163.11683991399485,1214.2960731462592,1036.2853614958256
23,68,22639.60626175539,2.0514903448868096,0.3650793650793651,872.0727292474841,160.6765891472287,-0.25762315725665963,107.7330115225868,0.07500164794173783,104.46235375163194,0.6648646889791157,96.824785593561,0.6077336940586131,2.609814039193331,1.5064382569129364,-0.4051559511549541,1.0948312231933568,3.0155641979568,3.4374131957574474,5.743152830476489,45.8996833901398,-136.13786787638094,-1.1207178792054373,-179.4775387248045,-98.35141164461274,1050.1358130295719,245.33544834587968,1.9248014514407918,0.45974791850741786,0.9953693683667266,1067.017310559355,231.59982380657175,1.9947429465804887,0.4165020046287237,1.0,1033.642205932855,230.04330116773826,1.8973272301549684,0.43138116854888714,1.0,1095.3574836099672,245.63944360653124,2.038608305551196,0.45091990419559375,0.9490904602692753,1010.7741254824144,249.06714079508075,1.8275673437062223,0.46766503017389255,0.8879666786220418,1145.8155488619504,361.26341564072004,2.170540869612368,0.6562919297334208,1.0,979.4086554183242,364.1648280532536,1.8253395452287826,0.6602030888325021,0.9989491291449596,1179.123537134032,499.64640629934365,2.1444153152298524,0.8961713626203609,1.0,960.9361563938355,508.39452870704025,1.7570825856421588,0.9093772628218509,0.9950451801997544,1187.883716362903,631.4237211452454,2.230682519370256,1.1764024370031885,1.0,947.8035626081576,635.0259772027417,1.7559514470654325,1.1759059344558296,0.9923084256500293,1121.4555868165767,623.4407932825109,2.0848249906005214,1.1350982510343754,1.0,1013.8864074589483,626.4583412336617,1.918419603509117,1.174908062287292,1.0,1132.1335011382182,833.040606934888,2.040237509330808,1.5517816665148694,0.9968694071431164,1021.5649328828791,827.769489728718,1.9307013025034487,1.5560301791488766,0.989913151074982,1132.023347189578,1040.3222502755596,2.0662757469644903,1.8873678731811543,0.9514959019130244,1033.904714290589,1032.2280848055525,1.921620818700678,1.93135010083968,0.9278223689218879,925.1905968138977,161.31973470287164,1214.5902156365623,1071.8737260422547
24,69,22639.695456987778,2.1406855772731923,0.38095238095238093,861.6040713358619,160.06366580908497,-0.5987822861444867,107.14421895962012,0.6882106869982945,102.72604202006089,0.4128854739324012,98.38702870642682,0.14226821302732667,2.120654600541797,0.8551648222330586,-0.6027437421610633,0.3875024542274317,2.921147610452445,2.7967891500738613,6.094639377214393,46.27802439365921,-135.5502469369626,-1.133243036903108,-179.15295644260715,-97.11271440876784,1051.4554070399322,245.82684251336,1.9370252335388034,0.46048710720386576,0.9947072348087898,1067.022706850826,229.51525947532983,2.003743731890302,0.4189291939927852,1.0,1034.0427271028673,231.29669259264944,1.910743268557182,0.4322455022882305,1.0,1096.9081193366706,245.0562690371725,2.046232772259776,0.4520222810933668,0.9459943867777967,1011.047125327981,247.1799536147339,1.8368129319489268,0.46939280177516823,0.8942199328963503,1145.9075412496447,362.17785236493216,2.179779838853451,0.65856389041564,1.0,979.9491916403539,365.6995991702708,1.8337183235643941,0.6592305772539419,0.9987783785187032,1180.6988600917,499.67774114615554,2.157308626595126,0.9044936134878553,0.9995694450306679,958.922791079735,507.6920307036611,1.765720927045776,0.9121896782526416,0.9943253045570667,1189.2864217978658,631.5018116363166,2.2404130867683425,1.1872165359754163,1.0,945.8196846226606,632.3825359403637,1.7594473589755812,1.1813592724381472,0.9923946958662752,1122.3618273807144,625.4151823728878,2.0944983343678625,1.1392030239798128,1.0,1014.5598015133469,626.0630330262524,1.9259541953291082,1.1826995295826221,1.0,1131.4982866326247,831.3907674183357,2.0506635524017827,1.5562240585413514,0.9924771277008824,1023.0062814807212,827.2941583409289,1.9422172396309068,1.5590063492617168,0.9855954627824269,1132.3869817035425,1035.3803865608002,2.079924339783486,1.8871730342672715,0.9225505333951602,1033.9406283838969,1023.5827570917863,1.9293859185261044,1.9291229655966153,0.8934035099219055,926.6960368443541,161.04223574153625,1214.2710167724235,1059.412460687021
25,70,22639.784652220165,2.2298808096595755,0.3968253968253968,872.7665748708249,160.64694195865144,-0.08211110909065222,107.89817995050649,0.6873346591041436,101.05373847330333,0.34569666649205244,95.30550254911707,-0.006942388236084618,1.817558643461192,0.481422573825488,-0.341043078363715,-0.11549367331418589,2.8769038209255684,2.827226397469891,6.60165400735722,46.316146729272525,-135.60424126026945,-1.4678687377502178,-178.62548574009818,-96.9597038596277,1052.7653518793936,243.96164356959397,1.9308628754321306,0.454503098876566,0.9945107107271965,1069.6412506836855,227.26749255618552,1.997085731324893,0.41763210177446014,1.0,1035.166115631638,228.05191350862705,1.9105601254712212,0.4272799817575182,1.0,1098.6407489239855,245.42627789130322,2.0414777097096666,0.452523161728024,0.9421995946589133,1010.8929554438516,246.23514462672412,1.8315921228791263,0.46306733864970323,0.9013647418968578,1145.603907897302,360.4584316885193,2.1743050345715247,0.6536327883810061,1.0,980.3572992965428,365.39365532264964,1.825692116487848,0.6601917292462893,0.9987857902675845,1180.446892995082,499.6470385484646,2.1519877597546504,0.9028825053158727,0.9993703669727824,959.3984166911094,509.5325024699529,1.7550705804227669,0.9123114730387762,0.9944334075223058,1190.8353748081788,631.2887484387727,2.2375957365634003,1.1833114653590935,1.0,946.2378288945678,633.5126769180374,1.7501661988318085,1.18060089084702,0.9925423004969148,1122.015436714729,624.3049778436957,2.0906415211211065,1.137139369795928,1.0,1015.8090466108515,626.6203996334858,1.9222711931414314,1.174851762685939,1.0,1130.7859190007084,834.1606935000995,2.044429490308189,1.5567262282989793,0.9929749101509086,1024.4738388690128,830.3065645782992,1.9406345854045102,1.5649409024332457,0.9856324894634416,1130.8846729065526,1045.890586094981,2.071830589806201,1.9033885663528909,0.9276362647057025,1034.414154460356,1028.8276857266476,1.9301315699034183,1.9394640562527268,0.8978412398320054,926.7893099784503,159.5029541746758,1215.4719604831212,1070.3051461732387
26,71,22639.873847452553,2.3190760420459586,0.41269841269841273,892.2322815023423,161.1779327861355,0.5105469773149791,108.1460550553258,-0.17169959679282962,101.14406852495459,0.2623454521022584,94.15753397642654,-0.21507858357451562,1.877384314588811,0.9169183875963811,0.040962015683818756,0.21134045078350758,2.963822179537161,3.0120355484588357,6.77519308434729,46.4752939717268,-135.99078646890348,-1.2437105189530624,-178.58752715763242,-96.36501161769644,1053.6802930085457,243.77550270160884,1.9262926149458608,0.44938381362093566,0.994622613974401,1071.515333819572,226.00138406803384,1.9953783863426364,0.4114347863547699,1.0,1036.0426445242804,225.8302857623644,1.906569134703005,0.42269743475052635,1.0,1099.0080053875765,244.6847473392732,2.0368485441167232,0.4499336313550106,0.9445840284864515,1010.3348935515548,245.33600855070645,1.8304330171684564,0.45813404100240007,0.8998667481375927,1144.6327739822218,359.8881238303621,2.170009777423735,0.6508959438409083,1.0,981.2021579607994,364.8412094538084,1.8204009418416442,0.6594141153573789,0.9988520172568542,1179.8933558750193,497.8338864957232,2.146537855090143,0.8987916008027189,0.9993919654191867,960.6359644660032,509.1199013753182,1.7495138218421378,0.9129971542170068,0.9946732734492799,1191.157641917328,630.731765260633,2.2349103354000026,1.1763343171792788,1.0,946.7991957335638,635.6350494638154,1.7505250139930406,1.1771225902086755,0.9925942910457991,1122.997664243437,623.2156576240224,2.0889820572895483,1.137374430259779,1.0,1016.7525789276857,626.5923517098499,1.9171635638400002,1.1702658127476329,1.0,1130.203286786305,836.7103894169509,2.0383966910219082,1.5562648013121803,0.9934127638819193,1024.1483132775597,831.7228465754563,1.9394605909059563,1.5642636734506046,0.9868441078545206,1130.2077921173648,1051.628107520112,2.061856081533815,1.9073554452630581,0.9306824774631619,1033.7871418604184,1036.0539945529429,1.9247751622133484,1.944991579766999,0.9064880384711913,927.5588023257832,157.79160603584972,1217.3415476299112,1090.7336054784041
27,72,22639.963042684936,2.408271274432342,0.4285714285714286,909.0740672365805,161.60703121381746,-0.0004250971772689627,108.58431252974576,-0.1052828092998393,98.07374976387375,0.5495845835979416,89.57989627942037,0.09368798653363329,1.5048091662808614,0.8070589300268142,0.11829430367209665,0.9090550038511352,3.2015131294201282,2.960727548516794,5.860291962878038,46.91718139217739,-136.07824657051256,-1.2833083156832776,-178.961780551132,-95.64247406042618,1053.896323503635,245.6392102702141,1.9221613463098064,0.4510314793785641,0.9950923277386823,1071.8646101643726,224.7118116614431,1.994089434270726,0.406645579516291,1.0,1035.8076030300467,228.59407404311642,1.8976384933670403,0.42189443145339456,1.0,1097.9427748111732,243.26250213397557,2.028354996724585,0.44733157361331677,0.946810105291434,1011.4555146777209,245.38887728882705,1.8255975841404788,0.45853753100491795,0.8997090874523853,1145.1401359091801,358.2830194696547,2.1638167605571863,0.64917084793202,1.0,979.99292975468,362.59664663560017,1.8125551858803335,0.653403925886015,0.9988968117920337,1179.7002247279688,498.58866917774094,2.138137595353959,0.8927565745732399,0.9991474544593404,961.360560036201,508.7681930007263,1.7436972166051294,0.9099106971310713,0.9950213250132393,1189.4332097263284,631.301848456529,2.227740691873569,1.1712256046064118,1.0,949.0553116823344,634.938854151564,1.749107898452596,1.1758192737830169,0.9928224492956033,1122.772038610082,621.6705860948828,2.0766695694885913,1.1358944663249764,1.0,1015.4662841540564,626.5389049419953,1.9083681205249003,1.1688185690131334,1.0,1129.3210048907636,838.4303099933858,2.028365478773697,1.554194457878312,0.9949337119907181,1025.3478630350878,834.7751486409396,1.935867627335155,1.5632811322157358,0.990244207838301,1126.7747946031097,1054.2705590837766,2.0494518071224572,1.9080348045356896,0.9434738497073144,1036.446589405753,1046.5893737876443,1.9198047200645048,1.9542529264556017,0.9298631079882683,927.4813035341936,159.6132289853699,1217.8475629346385,1107.2017707753866
28,73,22640.052237917324,2.4974665068187245,0.4444444444444444,904.1816926773381,162.95302634669437,-0.02652541172061479,108.61375426264591,0.6565015297721514,98.90592038510042,0.2500996079665523,91.1391987162074,0.08476849155158538,1.6670499977021853,0.8289468097263564,0.17049483238720245,0.3650179920284558,3.2606763473158344,2.8314465819830286,3.7183364780820214,46.44541258695439,-136.05247055813805,-1.215599545516659,-179.085877723822,-95.08873867171111,1053.5432895439583,243.65580402172262,1.9181895769386874,0.4441689288567298,0.9950153300951231,1070.115435692872,225.85315879324403,1.9807680235536822,0.4074845122173317,1.0,1036.3942020931613,227.1384859778531,1.8869475651882812,0.4177713585468966,1.0,1097.5546030968687,241.7438717931687,2.020534510018609,0.4458781105620448,0.9453403856653528,1012.2100380152908,246.18904020654077,1.8143296303400762,0.4534622950907886,0.9037946541646645,1144.6928710410114,356.422260280821,2.1517934762800213,0.645700183298782,1.0,977.281074797933,361.22749900096443,1.80427815872069,0.6477749384384283,0.9988626766937341,1179.4269278903782,497.60116666370135,2.1284273078059273,0.8903720147469256,0.9991950533801633,961.2103105830862,507.0797254259247,1.7329399634656562,0.9049400380692487,0.9949537677778401,1188.0250814993165,628.033508003942,2.214022091918162,1.1606873198569296,1.0,949.9524468875173,631.3860831202371,1.7406765672561957,1.1655656883792958,0.9926684679075479,1123.0129371111043,621.2841249511563,2.0685847314147408,1.1219550741560382,1.0,1012.228626846342,624.6290144071714,1.9001819216337799,1.1609584093500538,1.0,1130.2794766702336,831.8057064705814,2.021472165567063,1.5326936815498036,0.9940117884369479,1024.746630152627,829.6959971860597,1.9220224935012267,1.5435712697675734,0.9894949400671644,1126.9074502750634,1041.8104441743612,2.0438271982093648,1.875054740440215,0.9403299807985555,1035.5980159885778,1037.2548252992567,1.9152233905359637,1.923939613922023,0.9258361984015846,927.3694632965648,161.366550672722,1217.238159788815,1100.4917074150667
